{"meta":{"code":200,"requestId":"5ae4ca6a4c1f672d24e8fe2b"},"response":{"venues":[{"id":"51a81f83498e28b902053728","name":"Chick-fil-A","location":{"address":"503 W Martin Luther King Jr Blvd","lat":30.281803,"lng":-97.743146,"labeledLatLngs":[{"label":"display","lat":30.281803,"lng":-97.743146}],"distance":1625,"postalCode":"78701","cc":"US","city":"Austin","state":"TX","country":"United States","formattedAddress":["503 W Martin Luther King Jr Blvd","Austin, TX 78701","United States"]},"categories":[{"id":"4bf58dd8d48988d16e941735","name":"Fast Food Restaurant","pluralName":"Fast Food Restaurants","shortName":"Fast Food","icon":{"prefix":"https:\/\/ss3.4sqi.net\/img\/categories_v2\/food\/fastfood_","suffix":".png"},"primary":true}],"referralId":"v-1524943466","hasPerk":false},{"id":"4aae7a1bf964a520366220e3","name":"Chick-fil-A","location":{"address":"500 E Ben White Blvd","lat":30.220359,"lng":-97.757092,"labeledLatLngs":[{"label":"display","lat":30.220359,"lng":-97.757092}],"distance":5385,"postalCode":"78704","cc":"US","city":"Austin","state":"TX","country":"United States","formattedAddress":["500 E Ben White Blvd","Austin, TX 78704","United States"]},"categories":[{"id":"4bf58dd8d48988d16e941735","name":"Fast Food Restaurant","pluralName":"Fast Food Restaurants","shortName":"Fast Food","icon":{"prefix":"https:\/\/ss3.4sqi.net\/img\/categories_v2\/food\/fastfood_","suffix":".png"},"primary":true}],"referralId":"v-1524943466","hasPerk":false},{"id":"4b6de145f964a5203a982ce3","name":"Chick-fil-A","location":{"address":"5033-D US 290 West","lat":30.23307,"lng":-97.824899,"labeledLatLngs":[{"label":"display","lat":30.23307,"lng":-97.824899}],"distance":8735,"postalCode":"78735","cc":"US","city":"Austin","state":"TX","country":"United States","formattedAddress":["5033-D US 290 West","Austin, TX 78735","United States"]},"categories":[{"id":"4bf58dd8d48988d16e941735","name":"Fast Food Restaurant","pluralName":"Fast Food Restaurants","shortName":"Fast Food","icon":{"prefix":"https:\/\/ss3.4sqi.net\/img\/categories_v2\/food\/fastfood_","suffix":".png"},"primary":true}],"referralId":"v-1524943466","hasPerk":false},{"id":"4ae1ab07f964a520a78621e3","name":"Chick-fil-A","location":{"address":"10901 Research Blvd","lat":30.401126,"lng":-97.744989,"labeledLatLngs":[{"label":"display","lat":30.401126,"lng":-97.744989}],"distance":14909,"postalCode":"78759","cc":"US","city":"Austin","state":"TX","country":"United States","formattedAddress":["10901 Research Blvd","Austin, TX 78759","United States"]},"categories":[{"id":"4bf58dd8d48988d16e941735","name":"Fast Food Restaurant","pluralName":"Fast Food Restaurants","shortName":"Fast Food","icon":{"prefix":"https:\/\/ss3.4sqi.net\/img\/categories_v2\/food\/fastfood_","suffix":".png"},"primary":true}],"referralId":"v-1524943466","hasPerk":false},{"id":"4ab51d71f964a520957220e3","name":"Chick-fil-A","location":{"address":"701 S Capital Of Texas Hwy Ste L400","lat":30.291934,"lng":-97.827427,"labeledLatLngs":[{"label":"display","lat":30.291934,"lng":-97.827427}],"distance":8561,"postalCode":"78746","cc":"US","city":"West Lake Hills","state":"TX","country":"United States","formattedAddress":["701 S Capital Of Texas Hwy Ste L400","West Lake Hills, TX 78746","United States"]},"categories":[{"id":"4bf58dd8d48988d16e941735","name":"Fast Food Restaurant","pluralName":"Fast Food Restaurants","shortName":"Fast Food","icon":{"prefix":"https:\/\/ss3.4sqi.net\/img\/categories_v2\/food\/fastfood_","suffix":".png"},"primary":true}],"referralId":"v-1524943466","hasPerk":false},{"id":"4bc5eefd424195211643031d","name":"Chick-fil-A","location":{"address":"161 W Slaughter Ln Ste M","lat":30.16699,"lng":-97.792582,"labeledLatLngs":[{"label":"display","lat":30.16699,"lng":-97.792582}],"distance":12128,"postalCode":"78748","cc":"US","city":"Austin","state":"TX","country":"United States","formattedAddress":["161 W Slaughter Ln Ste M","Austin, TX 78748","United States"]},"categories":[{"id":"4bf58dd8d48988d16e941735","name":"Fast Food Restaurant","pluralName":"Fast Food Restaurants","shortName":"Fast Food","icon":{"prefix":"https:\/\/ss3.4sqi.net\/img\/categories_v2\/food\/fastfood_","suffix":".png"},"primary":true}],"referralId":"v-1524943466","hasPerk":false},{"id":"4b0d6e6ff964a520244823e3","name":"Chick-fil-A","location":{"address":"12501 N. Mopac Exp.","lat":30.418997,"lng":-97.703391,"labeledLatLngs":[{"label":"display","lat":30.418997,"lng":-97.703391}],"distance":17323,"postalCode":"78758","cc":"US","city":"Austin","state":"TX","country":"United States","formattedAddress":["12501 N. Mopac Exp.","Austin, TX 78758","United States"]},"categories":[{"id":"4bf58dd8d48988d16e941735","name":"Fast Food Restaurant","pluralName":"Fast Food Restaurants","shortName":"Fast Food","icon":{"prefix":"https:\/\/ss3.4sqi.net\/img\/categories_v2\/food\/fastfood_","suffix":".png"},"primary":true}],"referralId":"v-1524943466","hasPerk":false},{"id":"4b6b8637f964a520ec0d2ce3","name":"Chick-fil-A","location":{"address":"24th & Guadalupe","lat":30.284902,"lng":-97.73603,"labeledLatLngs":[{"label":"display","lat":30.284902,"lng":-97.73603}],"distance":2084,"postalCode":"78713","cc":"US","city":"Austin","state":"TX","country":"United States","formattedAddress":["24th & Guadalupe","Austin, TX 78713","United States"]},"categories":[{"id":"4bf58dd8d48988d16e941735","name":"Fast Food Restaurant","pluralName":"Fast Food Restaurants","shortName":"Fast Food","icon":{"prefix":"https:\/\/ss3.4sqi.net\/img\/categories_v2\/food\/fastfood_","suffix":".png"},"primary":true}],"referralId":"v-1524943466","hasPerk":false},{"id":"4be367e7d27a20a10139925b","name":"Chick-fil-A","location":{"address":"13201 Ranch Road 620 N","lat":30.469327,"lng":-97.791289,"labeledLatLngs":[{"label":"display","lat":30.469327,"lng":-97.791289}],"distance":22971,"postalCode":"78717","cc":"US","city":"Austin","state":"TX","country":"United States","formattedAddress":["13201 Ranch Road 620 N","Austin, TX 78717","United States"]},"categories":[{"id":"4bf58dd8d48988d16e941735","name":"Fast Food Restaurant","pluralName":"Fast Food Restaurants","shortName":"Fast Food","icon":{"prefix":"https:\/\/ss3.4sqi.net\/img\/categories_v2\/food\/fastfood_","suffix":".png"},"primary":true}],"referralId":"v-1524943466","hasPerk":false},{"id":"4af07c58f964a5208cdc21e3","name":"Chick-fil-A","location":{"address":"12901 I-35 N Service Road Bldg. 14","lat":30.414172,"lng":-97.672144,"labeledLatLngs":[{"label":"display","lat":30.414172,"lng":-97.672144}],"distance":17724,"postalCode":"78753","cc":"US","neighborhood":"Parmer Center","city":"Austin","state":"TX","country":"United States","formattedAddress":["12901 I-35 N Service Road Bldg. 14","Austin, TX 78753","United States"]},"categories":[{"id":"4bf58dd8d48988d16e941735","name":"Fast Food Restaurant","pluralName":"Fast Food Restaurants","shortName":"Fast Food","icon":{"prefix":"https:\/\/ss3.4sqi.net\/img\/categories_v2\/food\/fastfood_","suffix":".png"},"primary":true}],"referralId":"v-1524943466","hasPerk":false},{"id":"4ba269f2f964a5208df637e3","name":"Chick-fil-A","location":{"address":"3600 Ranch Road 620 S Ste C","lat":30.319075,"lng":-97.952634,"labeledLatLngs":[{"label":"display","lat":30.319075,"lng":-97.952634}],"distance":20951,"postalCode":"78738","cc":"US","city":"Bee Cave","state":"TX","country":"United States","formattedAddress":["3600 Ranch Road 620 S Ste C","Bee Cave, TX 78738","United States"]},"categories":[{"id":"4bf58dd8d48988d16e941735","name":"Fast Food Restaurant","pluralName":"Fast Food Restaurants","shortName":"Fast Food","icon":{"prefix":"https:\/\/ss3.4sqi.net\/img\/categories_v2\/food\/fastfood_","suffix":".png"},"primary":true}],"referralId":"v-1524943466","hasPerk":false},{"id":"49f5e4f2f964a520cd6b1fe3","name":"Chick-fil-A","location":{"address":"110 Louis Henna Blvd","lat":30.481387108355136,"lng":-97.6718579406979,"labeledLatLngs":[{"label":"display","lat":30.481387108355136,"lng":-97.6718579406979}],"distance":24805,"postalCode":"78664","cc":"US","city":"Round Rock","state":"TX","country":"United States","formattedAddress":["110 Louis Henna Blvd","Round Rock, TX 78664","United States"]},"categories":[{"id":"4bf58dd8d48988d16e941735","name":"Fast Food Restaurant","pluralName":"Fast Food Restaurants","shortName":"Fast Food","icon":{"prefix":"https:\/\/ss3.4sqi.net\/img\/categories_v2\/food\/fastfood_","suffix":".png"},"primary":true}],"referralId":"v-1524943466","hasPerk":false},{"id":"4b2791f7f964a5207d8724e3","name":"Chick-fil-A Pflugerville","location":{"address":"18617 Limestone Commercial Dr","lat":30.465945,"lng":-97.596443,"labeledLatLngs":[{"label":"display","lat":30.465945,"lng":-97.596443}],"distance":26227,"postalCode":"78660","cc":"US","city":"Pflugerville","state":"TX","country":"United States","formattedAddress":["18617 Limestone Commercial Dr","Pflugerville, TX 78660","United States"]},"categories":[{"id":"4bf58dd8d48988d16e941735","name":"Fast Food Restaurant","pluralName":"Fast Food Restaurants","shortName":"Fast Food","icon":{"prefix":"https:\/\/ss3.4sqi.net\/img\/categories_v2\/food\/fastfood_","suffix":".png"},"primary":true}],"referralId":"v-1524943466","hasPerk":false},{"id":"4d75632c8796f04daa3a4a16","name":"Chick-fil-A","location":{"address":"2201 Speedway","lat":30.28495,"lng":-97.736797,"labeledLatLngs":[{"label":"display","lat":30.28495,"lng":-97.736797}],"distance":2066,"postalCode":"78712","cc":"US","city":"Austin","state":"TX","country":"United States","formattedAddress":["2201 Speedway","Austin, TX 78712","United States"]},"categories":[{"id":"4bf58dd8d48988d16e941735","name":"Fast Food Restaurant","pluralName":"Fast Food Restaurants","shortName":"Fast Food","icon":{"prefix":"https:\/\/ss3.4sqi.net\/img\/categories_v2\/food\/fastfood_","suffix":".png"},"primary":true}],"referralId":"v-1524943466","hasPerk":false},{"id":"4acfbbf0f964a5209ad520e3","name":"Chick-fil-A","location":{"address":"1325 E Whitestone Blvd","lat":30.526464,"lng":-97.81445,"labeledLatLngs":[{"label":"display","lat":30.526464,"lng":-97.81445}],"distance":29662,"postalCode":"78613","cc":"US","city":"Cedar Park","state":"TX","country":"United States","formattedAddress":["1325 E Whitestone Blvd","Cedar Park, TX 78613","United States"]},"categories":[{"id":"4bf58dd8d48988d16e941735","name":"Fast Food Restaurant","pluralName":"Fast Food Restaurants","shortName":"Fast Food","icon":{"prefix":"https:\/\/ss3.4sqi.net\/img\/categories_v2\/food\/fastfood_","suffix":".png"},"primary":true}],"referralId":"v-1524943466","hasPerk":false},{"id":"4b9bde02f964a520232f36e3","name":"Chick-fil-A","location":{"address":"2901 S Capital Of Texas Hwy Ste Vc8","lat":30.257404,"lng":-97.807941,"labeledLatLngs":[{"label":"display","lat":30.257404,"lng":-97.807941}],"distance":6329,"postalCode":"78746","cc":"US","city":"Austin","state":"TX","country":"United States","formattedAddress":["2901 S Capital Of Texas Hwy Ste Vc8","Austin, TX 78746","United States"]},"categories":[{"id":"4bf58dd8d48988d16e941735","name":"Fast Food Restaurant","pluralName":"Fast Food Restaurants","shortName":"Fast Food","icon":{"prefix":"https:\/\/ss3.4sqi.net\/img\/categories_v2\/food\/fastfood_","suffix":".png"},"primary":true}],"delivery":{"id":"442147","url":"https:\/\/www.grubhub.com\/restaurant\/chick-fil-a-2901-s-capital-of-texas-hwy-ste-vc8-west-lake-hills\/442147?affiliate=1131&utm_source=foursquare-affiliate-network&utm_medium=affiliate&utm_campaign=1131&utm_content=442147","provider":{"name":"grubhub","icon":{"prefix":"https:\/\/igx.4sqi.net\/img\/general\/cap\/","sizes":[40,50],"name":"\/delivery_provider_grubhub_20180129.png"}}},"referralId":"v-1524943466","hasPerk":false},{"id":"4f5c21c0e4b070e04796a28a","name":"KCs Chicken","location":{"lat":30.267160415649414,"lng":-97.7428970336914,"labeledLatLngs":[{"label":"display","lat":30.267160415649414,"lng":-97.7428970336914}],"distance":20,"cc":"US","state":"Texas","country":"United States","formattedAddress":["Texas","United States"]},"categories":[{"id":"4bf58dd8d48988d1cb941735","name":"Food Truck","pluralName":"Food Trucks","shortName":"Food Truck","icon":{"prefix":"https:\/\/ss3.4sqi.net\/img\/categories_v2\/food\/streetfood_","suffix":".png"},"primary":true}],"referralId":"v-1524943466","hasPerk":false},{"id":"565ca521498e89a64b1036eb","name":"Chick Ranch","location":{"address":"1102 E Cesar Chavez St","lat":30.26021631615392,"lng":-97.73335039615631,"labeledLatLngs":[{"label":"display","lat":30.26021631615392,"lng":-97.73335039615631}],"distance":1217,"postalCode":"78702","cc":"US","city":"Austin","state":"TX","country":"United States","formattedAddress":["1102 E Cesar Chavez St","Austin, TX 78702","United States"]},"categories":[{"id":"5267e4d9e4b0ec79466e48c8","name":"Other Event","pluralName":"Other Events","shortName":"Other Event","icon":{"prefix":"https:\/\/ss3.4sqi.net\/img\/categories_v2\/event\/default_","suffix":".png"},"primary":true}],"referralId":"v-1524943466","hasPerk":false},{"id":"4bfc60c2da7120a1dafc49fd","name":"Chick-fil-A","location":{"address":"5289 Kyle Center Dr","lat":30.011763566261827,"lng":-97.86252813648557,"labeledLatLngs":[{"label":"display","lat":30.011763566261827,"lng":-97.86252813648557}],"distance":30671,"postalCode":"78640","cc":"US","city":"Kyle","state":"TX","country":"United States","formattedAddress":["5289 Kyle Center Dr","Kyle, TX 78640","United States"]},"categories":[{"id":"4bf58dd8d48988d16e941735","name":"Fast Food Restaurant","pluralName":"Fast Food Restaurants","shortName":"Fast Food","icon":{"prefix":"https:\/\/ss3.4sqi.net\/img\/categories_v2\/food\/fastfood_","suffix":".png"},"primary":true}],"referralId":"v-1524943466","hasPerk":false},{"id":"52b06d4611d2b6f2636eb4f4","name":"Gus's World Famous Fried Chicken","location":{"address":"117 San Jacinto Blvd","crossStreet":"2nd St","lat":30.263774939030885,"lng":-97.74167945825133,"labeledLatLngs":[{"label":"display","lat":30.263774939030885,"lng":-97.74167945825133}],"distance":404,"postalCode":"78701","cc":"US","city":"Austin","state":"TX","country":"United States","formattedAddress":["117 San Jacinto Blvd (2nd St)","Austin, TX 78701","United States"]},"categories":[{"id":"4d4ae6fc7a7b7dea34424761","name":"Fried Chicken Joint","pluralName":"Fried Chicken Joints","shortName":"Fried Chicken","icon":{"prefix":"https:\/\/ss3.4sqi.net\/img\/categories_v2\/food\/friedchicken_","suffix":".png"},"primary":true}],"referralId":"v-1524943466","hasPerk":false}]}}